{
  "transitSystems" : [
      { "city" : "San Francisco",
        "lat" : 37.7789,
        "lon" : -122.3917,
        "name" : "SF MUNI",
        "state" : "CA",
        "tag" : "sf-muni",
        "zoom" : 15
      },
      { "city" : "Chicago",
        "lat" : 41.834781,
        "lon" : -87.681197999999995,
        "name" : "CTA Bus",
        "state" : "IL",
        "tag" : "ctabus",
        "zoom" : 12
      },
      { "city" : "New York",
        "lat" : 40.850000000000001,
        "lon" : -73.866667000000007,
        "name" : "NYC MTA - Bronx",
        "state" : "NY",
        "tag" : "bronx",
        "zoom" : 15
      },
      { "city" : "New York",
        "lat" : 40.648476000000002,
        "lon" : -74.011630999999994,
        "name" : "NYC MTA - Brooklyn",
        "state" : "NY",
        "tag" : "brooklyn",
        "zoom" : 14
      },
      { "city" : "New York",
        "lat" : 40.579532,
        "lon" : -74.150200999999996,
        "name" : "NYC MTA - Staten Island",
        "state" : "NY",
        "tag" : "staten-island",
        "zoom" : 14
      },
      { "city" : "Alameda",
        "lat" : 37.765205999999999,
        "lon" : -122.241636,
        "name" : "AC Transit",
        "state" : "CA",
        "tag" : "actransit",
        "zoom" : 12
      },
      { "city" : "Laurel",
        "lat" : 39.099274999999999,
        "lon" : -76.848305999999994,
        "name" : "CMRT and Howard Transit",
        "state" : "MD",
        "tag" : "howard",
        "zoom" : 12
      },
      { "city" : "Cape Cod",
        "lat" : 41.688181,
        "lon" : -70.258133999999998,
        "name" : "Cape Cod Regional Transit Authority",
        "state" : "MA",
        "tag" : "ccrta",
        "zoom" : 10
      },
      { "city" : "Chapel Hill",
        "lat" : 35.913200000000003,
        "lon" : -79.055845000000005,
        "name" : "Chapel Hill Transit",
        "state" : "NC",
        "tag" : "chapel-hill",
        "zoom" : 14
      },
      { "city" : "Cambridge",
        "lat" : 42.361826000000001,
        "lon" : -71.085297999999995,
        "name" : "Charles River TMA EZRide",
        "state" : "MA",
        "tag" : "charles-river",
        "zoom" : 14
      },
      { "city" : "Baltimore",
        "lat" : 39.290385000000001,
        "lon" : -76.612189000000001,
        "name" : "Charm City Circulator",
        "state" : "MD",
        "tag" : "charm-city",
        "zoom" : 14
      },
      { "city" : "Oxford",
        "lat" : 34.366495,
        "lon" : -89.519248000000005,
        "name" : "City of Oxford",
        "state" : "MI",
        "tag" : "oxford-ms",
        "zoom" : 14
      },
      { "city" : "New York",
        "lat" : 40.714353000000003,
        "lon" : -74.005972999999997,
        "name" : "NYC Downtown Connection",
        "state" : "NY",
        "tag" : "da",
        "zoom" : 15
      },
      { "city" : "Alameda",
        "lat" : 37.503473,
        "lon" : -122.122331,
        "name" : "Dumbarton Express",
        "state" : "CA",
        "tag" : "dumbarton",
        "zoom" : 12
      },
      { "city" : "Emeryville",
        "lat" : 37.831316000000001,
        "lon" : -122.285247,
        "name" : "Emery-Go-Round",
        "state" : "CA",
        "tag" : "emery",
        "zoom" : 14
      },
      { "city" : "Glendale",
        "lat" : 34.142507999999999,
        "lon" : -118.25507500000001,
        "name" : "Glendale Beeline",
        "state" : "CA",
        "tag" : "glendale",
        "zoom" : 14
      },
      { "city" : "Oxnard",
        "lat" : 34.197505,
        "lon" : -119.177052,
        "name" : "Gold Coast Transit",
        "state" : "CA",
        "tag" : "south-coast",
        "zoom" : 12
      },
      { "city" : "Los Angeles",
        "lat" : 34.052233999999999,
        "lon" : -118.243685,
        "name" : "Los Angeles Metro",
        "state" : "CA",
        "tag" : "lametro",
        "zoom" : 14
      },
      { "city" : "Los Angeles",
        "lat" : 34.052233999999999,
        "lon" : -118.243685,
        "name" : "Los Angeles Rail",
        "state" : "CA",
        "tag" : "lametro-rail",
        "zoom" : 11
      },
      { "city" : "Cambridge",
        "lat" : 42.340670000000003,
        "lon" : -71.087109999999996,
        "name" : "Massachusetts Bay Transit",
        "state" : "MA",
        "tag" : "mbta",
        "zoom" : 14
      },
      { "city" : "Moorpark",
        "lat" : 34.285558000000002,
        "lon" : -118.882041,
        "name" : "Moorpark Transit",
        "state" : "CA",
        "tag" : "moorpark",
        "zoom" : 14
      },
      { "city" : "San Diego",
        "lat" : 32.775295999999997,
        "lon" : -117.218456,
        "name" : "North County Transit District",
        "state" : "CA",
        "tag" : "nctd",
        "zoom" : 11
      },
      { "city" : "San Bernardino",
        "lat" : 34.108345,
        "lon" : -117.289765,
        "name" : "Omnitrans",
        "state" : "CA",
        "tag" : "omnitrans"
      },
      { "city" : "Santa Rosa Island",
        "lat" : 30.332803999999999,
        "lon" : -87.149770000000004,
        "name" : "Pensacola Beach (SRIA)",
        "state" : "FL",
        "tag" : "sria",
        "zoom" : 11
      },
      { "city" : "Portland",
        "lat" : 45.523451999999999,
        "lon" : -122.67620700000001,
        "name" : "Portland Streetcar",
        "state" : "OR",
        "tag" : "portland-sc",
        "zoom" : 14
      },
      { "city" : "Largo",
        "lat" : 38.784920999999997,
        "lon" : -76.872095999999999,
        "name" : "Prince George's County",
        "state" : "MD",
        "tag" : "pgc",
        "zoom" : 10
      },
      { "city" : "Reno",
        "lat" : 39.529632999999997,
        "lon" : -119.81380299999999,
        "name" : "RTC RIDE",
        "state" : "NV",
        "tag" : "reno",
        "zoom" : 14
      },
      { "city" : "Radford",
        "lat" : 37.131791999999997,
        "lon" : -80.576447999999999,
        "name" : "Radford Transit",
        "state" : "VA",
        "tag" : "radford",
        "zoom" : 14
      },
      { "city" : "New York",
        "lat" : 40.762160999999999,
        "lon" : -73.949963999999994,
        "name" : "Roosevelt Island",
        "state" : "NY",
        "tag" : "roosevelt",
        "zoom" : 14
      },
      { "city" : "Seattle",
        "lat" : 47.606209,
        "lon" : -122.332071,
        "name" : "Seattle Streetcar",
        "state" : "WA",
        "tag" : "seattle-sc",
        "zoom" : 14
      },
      { "city" : "Simi Valley",
        "lat" : 34.269447,
        "lon" : -118.781482,
        "name" : "SVT",
        "state" : "CA",
        "tag" : "simi-valley",
        "zoom" : 14
      },
      { "city" : "Thousand Oaks",
        "lat" : 34.170560999999999,
        "lon" : -118.837594,
        "name" : "Thousand Oaks Transit (TOT)",
        "state" : "CA",
        "tag" : "thousand-oaks"
      },
      { "city" : "Davis",
        "lat" : 38.544907000000002,
        "lon" : -121.740517,
        "name" : "Unitrans ASUCD Davis",
        "state" : "CA",
        "tag" : "unitrans",
        "zoom" : 14
      },
      { "city" : "Ventura",
        "lat" : 34.274639999999998,
        "lon" : -119.229005,
        "name" : "Ventura Intercity (VISTA)",
        "state" : "CA",
        "tag" : "vista",
        "zoom" : 14
      },
      { "city" : "Thunder Bay",
        "lat" : 48.380895000000002,
        "lon" : -89.247681999999998,
        "name" : "Thunder Bay Transit",
        "state" : "Ontario, Canada",
        "tag" : "thunderbay"
      },
      { "city" : "Laval",
        "lat" : 45.606648999999997,
        "lon" : -73.712408999999994,
        "name" : "Societe de transport de Laval",
        "state" : "Quebec, Canada",
        "tag" : "stl",
        "zoom" : 12
      },
      { "city" : "Toronto",
        "lat" : 43.653225999999997,
        "lon" : -79.383184,
        "name" : "Toronto Transit Commission",
        "state" : "Ontario, Canada",
        "tag" : "ttc",
        "zoom" : 14
      },
      { "city" : "Washington DC",
        "lat" : 38.907231000000003,
        "lon" : -77.036463999999995,
        "name" : "Washington DC Circulator",
        "state" : "District of Columbia",
        "tag" : "dc-circulator"
      },
      { "city" : "Newark",
        "lat" : 40.739026000000003,
        "lon" : -74.16874,
        "name" : "Rutgers University Newark",
        "state" : "NJ",
        "tag" : "rutgers-newark",
        "zoom" : 14
      },
      { "city" : "New Brunswick",
        "lat" : 40.500956000000002,
        "lon" : -74.447343000000004,
        "name" : "Rutgers University",
        "state" : "NJ",
        "tag" : "rutgers",
        "zoom" : 14
      },
      { "city" : "San Francisco",
        "lat" : 37.784891000000002,
        "lon" : -122.438928,
        "name" : "University of California San Francisco",
        "state" : "CA",
        "tag" : "ucsf"
      },
      { "city" : "College Park",
        "lat" : 38.986936999999998,
        "lon" : -76.942868000000004,
        "name" : "University of Maryland",
        "state" : "MD",
        "tag" : "umd",
        "zoom" : 14
      },
      { "city" : "Bowling Green",
        "lat" : 36.990319999999997,
        "lon" : -86.443601999999998,
        "name" : "Western Kentucky University",
        "state" : "KY",
        "tag" : "wku",
        "zoom" : 11
      },
      { "city" : "Minneapolis",
        "lat" : 44.973990000000001,
        "lon" : -93.227728999999997,
        "name" : "University of Minnesota",
        "state" : "MN",
        "tag" : "umn-twin",
        "zoom" : 14
      },
      { "city" : "Durham",
        "lat" : 43.134549,
        "lon" : -70.930115999999998,
        "name" : "University of New Hampshire",
        "state" : "NH",
        "tag" : "unh",
        "zoom" : 15
      },
      { "city" : "New York",
        "lat" : 40.807535999999999,
        "lon" : -73.962573000000006,
        "name" : "City College NYC",
        "state" : "NY",
        "tag" : "ccny",
        "zoom" : 14
      },
      { "city" : "Ames",
        "lat" : 42.027639000000001,
        "lon" : -93.635232999999999,
        "name" : "CyRide Iowa",
        "state" : "IA",
        "tag" : "cyride"
      },
      { "city" : "Fairfax",
        "lat" : 38.832996999999999,
        "lon" : -77.308369999999996,
        "name" : "George Mason University",
        "state" : "VA",
        "tag" : "gmu",
        "zoom" : 13
      },
      { "city" : "Baltimore",
        "lat" : 39.345680999999999,
        "lon" : -76.618643000000006,
        "name" : "Loyola University Maryland",
        "state" : "MD",
        "tag" : "loyola",
        "zoom" : 15
      },
      { "city" : "Cambridge",
        "lat" : 42.358866999999996,
        "lon" : -71.093824999999995,
        "name" : "Massachusetts Institute of Technology",
        "state" : "MA",
        "tag" : "mit",
        "zoom" : 15
      },
      { "city" : "Greenville",
        "lat" : 35.607481999999997,
        "lon" : -77.366958999999994,
        "name" : "East Carolina University",
        "state" : "NC",
        "tag" : "ecu",
        "zoom" : 13
      },
      { "city" : "California",
        "lat" : 40.063142999999997,
        "lon" : -79.882095000000007,
        "name" : "California University of Pennsylvania",
        "state" : "PA",
        "tag" : "calu-pa"
      },
      { "city" : "Milledgeville",
        "lat" : 33.081994999999999,
        "lon" : -83.230897999999996,
        "name" : "Georgia College",
        "state" : "GA",
        "tag" : "georgia-college"
      }
    ] }
